title,thumbnail_url,Artist Name and Installation Date,Art Type,Location Description,latitude,longitude
Untitled,https://live.staticflickr.com/3275/3023565088_d6212acf50_3k.jpg,"Elena Irving, 1987",Sculpture,1006 Carol Drive,34.089111,-118.390938
Where Fire Meets Water,https://live.staticflickr.com/3275/3023565088_d6212acf50_3k.jpg,"Michael Amescua, 1999",Architectural,8866 Cynthia Street (Fire Station),34.087109,-118.385262
La Bodega,https://live.staticflickr.com/3062/3022729917_b527a08e65_3k.jpg,"Alan S. Boivin, 1989",Architectural,963 N Larrabee Street,34.089134,-118.384575
Studwall,https://live.staticflickr.com/8679/30092720875_fd26e1738c_k.jpg,"Ball Nogues, 2013",Sculpture,1287 N. La Brea Blvd.,34.0937726,-118.3440788
Tree of Life,https://live.staticflickr.com/3254/3023556390_fecb10a7ad_k.jpg,"David Rosen, 1988",Mural,1031 N. Crescent Heights Boulevard,34.089905,-118.366096
Cauldron Stone,https://live.staticflickr.com/3005/3023564910_dd3e2ded2a_k.jpg,"Yoshikawa, 1999",Sculpture,613 West Knoll Dr.,34.082317,-118.377669
A Quiet Moment or The Lightness of Being,https://live.staticflickr.com/3243/3022738941_faa49b73da_c.jpg,"Patrick McGrath, 2003",Sculpture,1414 N. Harper Avenue,34.096123,-118.368805
Tonic or Age of Noise,https://live.staticflickr.com/3269/3023566426_7dff24d461_b.jpg,"Bruce Odland, 2002",Sculpture,8840 Santa Monica Boulevard,34.084969,-118.383583
Three Kings,https://live.staticflickr.com/5475/29464819184_8033b89685_k.jpg,"Guy Dill, 2013",Architectural,1232 Kings Road,34.0925855,-118.3725138
Archway,https://live.staticflickr.com/3285/3022727603_f06a746b91_3k.jpg,"John Canavier, 1987",Sculpture,8819 Harratt Street,34.089703,-118.383736
Eye Flower,https://live.staticflickr.com/3226/3023565388_fe6b9968fd_3k.jpg,"James Surls, 2002",Sculpture,8560 & 8590 Sunset Boulevard,34.092461,-118.378395
e/MOTION,https://live.staticflickr.com/3294/3022738023_6122518991.jpg,"Paul Tzanetopoulos, 2003",Video Screen and projections,7102 Santa Monica Boulevard,34.090576,-118.344711
Doggie Dog (Homage to Giacometti),https://live.staticflickr.com/5264/29464852393_935fcc1b25_k.jpg,"Tsipi Mani, 2013",Sculpture,625 N. San Vicente Blvd,34.081741,-118.383705
825 Over 2,https://live.staticflickr.com/1341/3174129695_f30a415d21_z.jpg,"John O' Brien, 2008",Sculpture,825 N. Kings Road,34.086163,-118.371841
Under the Sun,https://live.staticflickr.com/4580/25029008548_dcb00d05e2_4k.jpg,"Monique Van Genderen, 2017",Sculpture,8350 Santa Monica Blvd.,34.090383,-118.371835
The Trojan,https://live.staticflickr.com/3287/3023556076_9137498a56_k.jpg,"Giora Eshkol, 1988",Sculpture,960 Doheny Drive,34.08902,-118.389626
Cynthia Palm,,"Christina Ulke, 2009",Sculpture,8833 Cynthia Street,34.087379,-118.383873
Murano,,"Peter Shire, 2009",Sculpture,Santa Monica Median near Palm Avenue,34.088455,-118.378075
Children's Clock,https://live.staticflickr.com/3053/3022737693_4909dbb904_w.jpg,"Lynn Goodpasture, 2003",Architectural,563 N. Alfred Street,34.081963,-118.376343
Reina De Los Angeles,https://live.staticflickr.com/3135/3022730741_fdf5ff5c62_3k.jpg,"Peter Dudar & Sally Mark, 1992",Sculpture,1320 N. Harper Avenue,34.095001,-118.368752
Implied Arch,https://live.staticflickr.com/3166/3023557098_34bc2d593e_3k.jpg,"John Geise, 1991",Sculpture,1121 N. La Cienega Boulevard,34.091411,-118.376442
Becoming,https://live.staticflickr.com/3623/3288932030_387f22492a_3k.jpg,"Hyunsook Cho, 2008",Sculpture,1146 N. Hacienda Place,34.092152,-118.375008
Cabinet of Wonder,https://live.staticflickr.com/913/40612739315_bb18fe3a66_5k.jpg,"Elena Manferdini, 2017",Sculpture,627 La Peer Drive,34.081519,-118.386758
Untitled,,"R. Nikkhessal, 1988",Sculpture,939 N. Palm Avenue,34.088291,-118.383011
Virginia Court Motel Diver,https://live.staticflickr.com/3242/3023556756_9cea4b0716_3k.jpg,Unknown,Sculpture,647 N San Vicente Boulevard,34.0829682,-118.3845428
3-D Sculpture,https://live.staticflickr.com/3227/3023555470_8bd5e0d826_3k.jpg,"Donald Jackson, 1987",Sculpture,1115 N Larrabee Street,34.091213,-118.384575
With An Ear To The Earth,https://live.staticflickr.com/3464/3288932230_796cfb0762_b.jpg,"Steve Roden, 2008",Sculpture,1351 N. Havenhurst Drive (Havenhurst Park),34.095818,-118.367821
Abstract,https://live.staticflickr.com/3187/3022729609_616b6b039b_3k.jpg,"Paul Betouliere, 1989",Sculpture,930 N Doheny Drive,34.088085,-118.389648
Floraform,https://live.staticflickr.com/3067/3022731219_c34b6a1a54_3k.jpg,"Paul Tzanetopoulos, 1995",Architectural,8383 Santa Monica Boulevard,34.09079,-118.372444
Untitled,https://live.staticflickr.com/3020/3022728251_b6667f6994_3k.jpg,"Cynthia Barber, 1987",Sculpture,1156 N. Hacienda Place,34.092358,-118.375
Tree Form,https://live.staticflickr.com/7046/6892905057_0aff928f9f_h.jpg,"Karl Saliter, 2009",Sculpture,1140 N. Formosa Street (Formosa Park),34.091801,-118.346069
Mandarins from Belize,https://live.staticflickr.com/4549/24035805987_e93db08091_5k.jpg,"Alice Konitz, 2015",Sculpture,616 Croft Avenue,34.0825,-118.374045
Untitled,https://live.staticflickr.com/3020/3022739149_b41ae0f6c8_3k.jpg,"David Verano, 1987",Sculpture,8562 West Knoll Drive,34.089352,-118.378716
A Moment In Time,https://live.staticflickr.com/3275/3022737155_dd5e89bc52_3k.jpg,"Gifford Myers, 2001",Sculpture,9105 Beverly Boulevard,34.077342,-118.389343
The Riddle of the Sphinx,https://live.staticflickr.com/3175/3023566046_94054c208c_h.jpg,"Richard Turner, 2000",Sculpture,7377 Santa Monica Boulevard (Plummer Park),34.091572,-118.350922
Rockin' Angel,,"Peter Shire, 2009",Sculpture,Santa Monica Median near Palms Avenue,34.088566,-118.377686
West Hollywood Clock,,"Nancy Mooslin, 1996",Sculpture,8520 Santa Monica Boulevard,34.088706,-118.377083
Pattern Language (The London Gates),https://live.staticflickr.com/7059/6892904681_c6edf23cd6_3k.jpg,"Charles Fine, 2009",Sculpture,1020 San Vicente Boulevard,34.089912,-118.385406
Horizon; Cubes,https://live.staticflickr.com/5028/30009018521_d37221bb87_k.jpg,"Erwin Redl, 2012",Light sculpture,8687 Melrose Avenue,34.082185,-118.3842395
Platanus Bibliotechalis,https://live.staticflickr.com/5635/30009178901_ab789d1cea_k.jpg,"David Wiseman, 2011",Sculpture,625 N. San Vicente Blvd,34.081741,-118.383705
Untitled,https://live.staticflickr.com/3053/3022728639_fe2a2918ae_3k.jpg,"Lee Kelly, 1988",Sculpture,8815 Cynthia Street,34.087391,-118.383598
All Tiled Up,https://live.staticflickr.com/3058/3023557908_8d9ac07200_3k.jpg,"Massoud Arabshahi, 1990",Architectural,1274 N. Harper Avenue,34.093903,-118.368713
Mediterraneo,https://live.staticflickr.com/3146/3022728905_188d8abb07_3k.jpg,"Alona Hamilton Cooke, 1988",Fountain and tile work,9024 Cynthia Street,34.087208,-118.388588
Untitled,https://live.staticflickr.com/3053/3022728639_fe2a2918ae_3k.jpg,"Phillipe Starck, 1996",Sculpture,8440 Sunset Boulevard,34.094452,-118.374268
Sunset Strip Poinsettia Fields,https://live.staticflickr.com/8127/30092628065_81dbefda4b_k.jpg,"Brad Howe, 2011",Sculpture,8600 Sunset Blvd.,34.092285,-118.379501
Close-Up,https://live.staticflickr.com/4572/25029017238_27010a9cc9_5k.jpg,"Christian Moeller, 2016",Sculpture,7302 Santa Monica Blvd.,34.090197,-118.349283
Untitled,https://live.staticflickr.com/3053/3023564160_7de2d14e1a_3k.jpg,"Bowman, 1997",Mural,8611 Santa Monica Blvd,34.088135,-118.379234